{"type": "FeatureCollection", "features": [{"type": "Feature", "geometry": {"type": "Point", "coordinates": [13.3821185, 52.5117497]}, "properties": {"id": "1010020", "name": "Kita Kinderwelt", "type": "Kindertagesstätte", "street": "An der Kolonnade 3", "zip-code": 10117, "city": "Berlin", "phone-number": 49302291378, "places": 155, "sponsor-id": 1334, "sponsor-name": "Forum Soziale Dienste GmbH", "sponsor-type": "Sonstiger freier Träger", "lat": 52.5117497, "lon": 13.3821185, "planning-area-id": 1100205}}, {"type": "Feature", "geometry": {"type": "Point", "coordinates": [13.399298326674506, 52.5353154]}, "properties": {"id": "1010030", "name": "FRÖBEL Kindergarten Casa Fantasia", "type": "Kindertagesstätte", "street": "Anklamer Straße 38", "zip-code": 10115, "city": "Berlin", "phone-number": 493048495184, "places": 69, "sponsor-id": 1227, "sponsor-name": "Fröbel Bildung und Erziehung gGmbH", "sponsor-type": "Sonstiger freier Träger", "lat": 52.5353154, "lon": 13.399298326674506, "planning-area-id": 1100416}}, {"type": "Feature", "geometry": {"type": "Point", "coordinates": [13.404899890866746, 52.532131]}, "properties": {"id": "1010080", "name": "Kita Regenbogen", "type": "Kindertagesstätte", "street": "Fehrbelliner Straße 80", "zip-code": 10119, "city": "Berlin", "phone-number": 49304493238, "places": 91, "sponsor-id": 1202, "sponsor-name": "Pfefferwerk Stadtkultur gGmbH", "sponsor-type": "Sonstiger freier Träger", "lat": 52.532131, "lon": 13.404899890866746, "planning-area-id": 1100416}}, {"type": "Feature", "geometry": {"type": "Point", "coordinates": [13.4055478, 52.5123463]}, "properties": {"id": "1010100", "name": "FRÖBEL Kindergarten Schatzinsel", "type": "Kindertagesstätte", "street": "Fischerinsel 8", "zip-code": 10179, "city": "Berlin", "phone-number": 49302013788, "places": 234, "sponsor-id": 1227, "sponsor-name": "Fröbel Bildung und Erziehung gGmbH", "sponsor-type": "Sonstiger freier Träger", "lat": 52.5123463, "lon": 13.4055478, "planning-area-id": 1100312}}, {"type": "Feature", "geometry": {"type": "Point", "coordinates": [13.3881437, 52.5145727]}, "properties": {"id": "1010110", "name": "Kita Französische Straße 16a u. 16b", "type": "Kindertagesstätte", "street": "Französische Straße 16", "zip-code": 10117, "city": "Berlin", "phone-number": 49302089214, "places": 180, "sponsor-id": 1318, "sponsor-name": "Kinder im Kiez gGmbH", "sponsor-type": "Sonstiger freier Träger", "lat": 52.5145727, "lon": 13.3881437, "planning-area-id": 1100206}}, {"type": "Feature", "geometry": {"type": "Point", "coordinates": [13.379618031158628, 52.5154125]}, "properties": {"id": "1010120", "name": "Kinderladen Die Humbolde", "type": "Kindertagesstätte", "street": "Pariser Platz 4", "zip-code": 10117, "city": "Berlin", "phone-number": 4930209346651, "places": 25, "sponsor-id": 102, "sponsor-name": "Humboldt Universität zu Berlin", "sponsor-type": "Betriebskita", "lat": 52.5154125, "lon": 13.379618031158628, "planning-area-id": 1100205}}, {"type": "Feature", "geometry": {"type": "Point", "coordinates": [13.3872109, 52.5251897]}, "properties": {"id": "1010130", "name": "Kita Pelikan", "type": "Kindertagesstätte", "street": "Friedrichstraße 129", "zip-code": 10117, "city": "Berlin", "phone-number": 49302824385, "places": 190, "sponsor-id": 1339, "sponsor-name": "Kinder- und Jugend der Volkssolidarität Berlin gGmbH", "sponsor-type": "Sonstiger freier Träger", "lat": 52.5251897, "lon": 13.3872109, "planning-area-id": 1100308}}, {"type": "Feature", "geometry": {"type": "Point", "coordinates": [13.39162961909171, 52.52937455]}, "properties": {"id": "1010150", "name": "Kita Gartenstraße 107", "type": "Kindertagesstätte", "street": "Gartenstraße 107", "zip-code": 10115, "city": "Berlin", "phone-number": 49302828337, "places": 140, "sponsor-id": 120, "sponsor-name": "Kindergärten City", "sponsor-type": "Eigenbetrieb", "lat": 52.52937455, "lon": 13.39162961909171, "planning-area-id": 1100415}}, {"type": "Feature", "geometry": {"type": "Point", "coordinates": [13.3752043, 52.5311528]}, "properties": {"id": "1010170", "name": "Kita Kinderakademie", "type": "Kindertagesstätte", "street": "Habersaathstraße 13", "zip-code": 10115, "city": "Berlin", "phone-number": 49302824496, "places": 150, "sponsor-id": 1224, "sponsor-name": "GFJ - gemeinnützige Gesellschaft für Familien- und Jugendhilfe mbH", "sponsor-type": "Sonstiger freier Träger", "lat": 52.5311528, "lon": 13.3752043, "planning-area-id": 1100308}}, {"type": "Feature", "geometry": {"type": "Point", "coordinates": [13.423468627169726, 52.5149252]}, "properties": {"id": "1010180", "name": "Lichtenberger Straße 32", "type": "Kindertagesstätte", "street": "Lichtenberger Straße 32/33", "zip-code": 10179, "city": "Berlin", "phone-number": 49302492179, "places": 190, "sponsor-id": 120, "sponsor-name": "Kindergärten City", "sponsor-type": "Eigenbetrieb", "lat": 52.5149252, "lon": 13.423468627169726, "planning-area-id": 1100311}}]}